header:
  stamp:
    sec: 1712073973
    nanosec: 784822760
  frame_id: world
pose:
  position:
    x: 0.06146862730383873
    y: -0.07722160965204239
    z: 0.018612628802657127
  orientation:
    x: -0.00010658759129000828
    y: -0.0010757838608697057
    z: 0.000933089351747185
    w: -0.9999989867210388
---
header:
  stamp:
    sec: 1712073973
    nanosec: 794897271
  frame_id: world
pose:
  position:
    x: 0.06146685406565666
    y: -0.07722141593694687
    z: 0.018628185614943504
  orientation:
    x: -0.00015424688172060996
    y: -0.001113882171921432
    z: 0.0009448687196709216
    w: -0.999998927116394
---
header:
  stamp:
    sec: 1712073973
    nanosec: 804890597
  frame_id: world
pose:
  position:
    x: 0.0614975243806839
    y: -0.07715892046689987
    z: 0.018700629472732544
  orientation:
    x: -0.00014265807112678885
    y: -0.0002585159963928163
    z: 0.0007670301129110157
    w: -0.9999997019767761
---
header:
  stamp:
    sec: 1712073973
    nanosec: 805013447
  frame_id: world
pose:
  position:
    x: 0.061464011669158936
    y: -0.07722023874521255
    z: 0.018626699224114418
  orientation:
    x: -0.0001236506795976311
    y: -0.0010978929931297898
    z: 0.000972599838860333
    w: -0.999998927116394
---
header:
  stamp:
    sec: 1712073973
    nanosec: 814900019
  frame_id: world
pose:
  position:
    x: 0.06146726757287979
    y: -0.07722350209951401
    z: 0.018626360222697258
  orientation:
    x: -0.00012478009739425033
    y: -0.0010813705157488585
    z: 0.0009337077499367297
    w: -0.9999989867210388
---
header:
  stamp:
    sec: 1712073973
    nanosec: 824887233
  frame_id: world
pose:
  position:
    x: 0.06145625561475754
    y: -0.07721597701311111
    z: 0.018631288781762123
  orientation:
    x: -0.0001387393567711115
    y: -0.0010530592408031225
    z: 0.0009466643095947802
    w: -0.9999989867210388
---
header:
  stamp:
    sec: 1712073973
    nanosec: 834881039
  frame_id: world
pose:
  position:
    x: 0.06149023771286011
    y: -0.07721201330423355
    z: 0.018646923825144768
  orientation:
    x: -0.00011355803871992975
    y: -0.0008165271719917655
    z: 0.0009714075131341815
    w: -0.9999992251396179
---
header:
  stamp:
    sec: 1712073973
    nanosec: 844884829
  frame_id: world
pose:
  position:
    x: 0.061457425355911255
    y: -0.07721621543169022
    z: 0.018625957891345024
  orientation:
    x: -0.00010031202691607177
    y: -0.0010542748495936394
    z: 0.000943959632422775
    w: -0.9999990463256836
---
header:
  stamp:
    sec: 1712073973
    nanosec: 854904652
  frame_id: world
pose:
  position:
    x: 0.06146743893623352
    y: -0.07722114026546478
    z: 0.01862240768969059
  orientation:
    x: -9.02459432836622e-05
    y: -0.0010156582575291395
    z: 0.0009229564457200468
    w: -0.9999991059303284
---
header:
  stamp:
    sec: 1712073973
    nanosec: 855046606
  frame_id: world
pose:
  position:
    x: 0.061461277306079865
    y: -0.07721563428640366
    z: 0.018624497577548027
  orientation:
    x: -0.000122464494779706
    y: -0.0010359800653532147
    z: 0.0009322699042968452
    w: -0.9999991059303284
---
header:
  stamp:
    sec: 1712073973
    nanosec: 864890073
  frame_id: world
pose:
  position:
    x: 0.061461612582206726
    y: -0.07722235471010208
    z: 0.018622616305947304
  orientation:
    x: -0.00011112573702121153
    y: -0.001042282790876925
    z: 0.0009325155406259
    w: -0.9999990463256836
---
header:
  stamp:
    sec: 1712073973
    nanosec: 874883207
  frame_id: world
pose:
  position:
    x: 0.06145869195461273
    y: -0.07722199708223343
    z: 0.01862437278032303
  orientation:
    x: -0.00011462983820820227
    y: -0.0010742199374362826
    z: 0.0009235526085831225
    w: -0.9999989867210388
---
header:
  stamp:
    sec: 1712073973
    nanosec: 884882005
  frame_id: world
pose:
  position:
    x: 0.06149682402610779
    y: -0.07715792208909988
    z: 0.01869874633848667
  orientation:
    x: -0.00011993418593192473
    y: -0.00021896797989029437
    z: 0.0007411095430143178
    w: -0.9999997019767761
---
header:
  stamp:
    sec: 1712073973
    nanosec: 894885283
  frame_id: world
pose:
  position:
    x: 0.06146199256181717
    y: -0.07722581923007965
    z: 0.018618205562233925
  orientation:
    x: -0.00017717489390634
    y: -0.001064885756932199
    z: 0.0009362707496620715
    w: -0.9999989867210388
---
header:
  stamp:
    sec: 1712073973
    nanosec: 904910610
  frame_id: world
pose:
  position:
    x: 0.061460282653570175
    y: -0.0772213265299797
    z: 0.018623217940330505
  orientation:
    x: -0.00014781633217353374
    y: -0.0010973220923915505
    z: 0.000942283368203789
    w: -0.9999989867210388
---
header:
  stamp:
    sec: 1712073973
    nanosec: 905046228
  frame_id: world
pose:
  position:
    x: 0.06146165728569031
    y: -0.07722222059965134
    z: 0.018623879179358482
  orientation:
    x: -0.00017076336371246725
    y: -0.0010948519920930266
    z: 0.000933871662709862
    w: -0.9999989867210388
---
header:
  stamp:
    sec: 1712073973
    nanosec: 914893888
  frame_id: world
pose:
  position:
    x: 0.06146746873855591
    y: -0.07722315937280655
    z: 0.018624162301421165
  orientation:
    x: -9.984777716454118e-05
    y: -0.0010466851526871324
    z: 0.0009321579127572477
    w: -0.9999990463256836
---
header:
  stamp:
    sec: 1712073973
    nanosec: 925074385
  frame_id: world
pose:
  position:
    x: 0.06146160513162613
    y: -0.0772235095500946
    z: 0.01861877180635929
  orientation:
    x: -0.00013163758558221161
    y: -0.001096535474061966
    z: 0.0009340877295471728
    w: -0.999998927116394
---
header:
  stamp:
    sec: 1712073973
    nanosec: 934882236
  frame_id: world
pose:
  position:
    x: 0.06146598979830742
    y: -0.07721279561519623
    z: 0.018626855686306953
  orientation:
    x: -0.00015443962183780968
    y: -0.0010568472789600492
    z: 0.000923328974749893
    w: -0.9999990463256836
---
header:
  stamp:
    sec: 1712073973
    nanosec: 944966795
  frame_id: world
pose:
  position:
    x: 0.06146576628088951
    y: -0.07721409201622009
    z: 0.018627101555466652
  orientation:
    x: -0.0001106809577322565
    y: -0.001099755521863699
    z: 0.0009516041027382016
    w: -0.9999989867210388
---
header:
  stamp:
    sec: 1712073973
    nanosec: 945065197
  frame_id: world
pose:
  position:
    x: 0.061465032398700714
    y: -0.077216736972332
    z: 0.01862364262342453
  orientation:
    x: -0.00012548248923849314
    y: -0.0010982138337567449
    z: 0.0009156177402473986
    w: -0.9999989867210388
---
header:
  stamp:
    sec: 1712073973
    nanosec: 954888728
  frame_id: world
pose:
  position:
    x: 0.06146479398012161
    y: -0.07721713930368423
    z: 0.018621250987052917
  orientation:
    x: -0.00011118613474536687
    y: -0.0010686509776860476
    z: 0.000942968821618706
    w: -0.9999989867210388
---
header:
  stamp:
    sec: 1712073973
    nanosec: 964883014
  frame_id: world
pose:
  position:
    x: 0.06149084120988846
    y: -0.07714743167161942
    z: 0.01869896613061428
  orientation:
    x: -0.00014777632895857096
    y: -0.00024207463138736784
    z: 0.0007784891058690846
    w: -0.9999996423721313
---
header:
  stamp:
    sec: 1712073973
    nanosec: 974891156
  frame_id: world
pose:
  position:
    x: 0.06147006154060364
    y: -0.0772198811173439
    z: 0.018617315217852592
  orientation:
    x: -0.00016611686442047358
    y: -0.0011146841570734978
    z: 0.0009547556983307004
    w: -0.999998927116394
---
header:
  stamp:
    sec: 1712073973
    nanosec: 984883682
  frame_id: world
pose:
  position:
    x: 0.06149783357977867
    y: -0.07715823501348495
    z: 0.01869615726172924
  orientation:
    x: -0.00012077631254214793
    y: -0.00034919599420391023
    z: 0.0007651898195035756
    w: -0.9999997019767761
---
header:
  stamp:
    sec: 1712073973
    nanosec: 994885072
  frame_id: world
pose:
  position:
    x: 0.06146134063601494
    y: -0.07722387462854385
    z: 0.018621481955051422
  orientation:
    x: -0.00011730082042049617
    y: -0.0010717185214161873
    z: 0.0009504343615844846
    w: -0.9999989867210388
---
header:
  stamp:
    sec: 1712073974
    nanosec: 4888734
  frame_id: world
pose:
  position:
    x: 0.06149110198020935
    y: -0.0771537497639656
    z: 0.01870746724307537
  orientation:
    x: -0.0001374499552184716
    y: -0.00029611168429255486
    z: 0.0007575604249723256
    w: -0.9999996423721313
---
header:
  stamp:
    sec: 1712073974
    nanosec: 5001856
  frame_id: world
pose:
  position:
    x: 0.061470046639442444
    y: -0.07721909135580063
    z: 0.018616309389472008
  orientation:
    x: -0.0001302679011132568
    y: -0.0010717724217101932
    z: 0.0009570727124810219
    w: -0.9999990463256836
---
header:
  stamp:
    sec: 1712073974
    nanosec: 14894957
  frame_id: world
pose:
  position:
    x: 0.0614638477563858
    y: -0.07722184807062149
    z: 0.018627220764756203
  orientation:
    x: -0.0001628809841349721
    y: -0.0010650217300280929
    z: 0.0009371797204948962
    w: -0.9999989867210388
---
header:
  stamp:
    sec: 1712073974
    nanosec: 24891835
  frame_id: world
pose:
  position:
    x: 0.06149907037615776
    y: -0.07715662568807602
    z: 0.018696056678891182
  orientation:
    x: -0.00012045642506564036
    y: -0.00030284683452919126
    z: 0.0007332119275815785
    w: -0.9999997019767761
---
header:
  stamp:
    sec: 1712073974
    nanosec: 34888649
  frame_id: world
pose:
  position:
    x: 0.06146235764026642
    y: -0.07722217589616776
    z: 0.018619148060679436
  orientation:
    x: -0.00010657501843525097
    y: -0.0011003547115251422
    z: 0.0009202071814797819
    w: -0.9999990463256836
---
header:
  stamp:
    sec: 1712073974
    nanosec: 44893079
  frame_id: world
pose:
  position:
    x: 0.06146274134516716
    y: -0.0772208720445633
    z: 0.0186284389346838
  orientation:
    x: -0.00017109567124862224
    y: -0.0010717358672991395
    z: 0.0009058275609277189
    w: -0.9999990463256836
---
header:
  stamp:
    sec: 1712073974
    nanosec: 54889189
  frame_id: world
pose:
  position:
    x: 0.061465855687856674
    y: -0.0772201418876648
    z: 0.01862826757133007
  orientation:
    x: -0.0001240915444213897
    y: -0.0010737190023064613
    z: 0.0009584437357261777
    w: -0.9999989867210388
---
header:
  stamp:
    sec: 1712073974
    nanosec: 54996007
  frame_id: world
pose:
  position:
    x: 0.06146837770938873
    y: -0.07722490280866623
    z: 0.018626583740115166
  orientation:
    x: -0.00013715158274862915
    y: -0.0010637493105605245
    z: 0.0009411135106347501
    w: -0.9999990463256836
---
header:
  stamp:
    sec: 1712073974
    nanosec: 64897491
  frame_id: world
pose:
  position:
    x: 0.0614941380918026
    y: -0.07716090232133865
    z: 0.01870523765683174
  orientation:
    x: -9.32217444642447e-05
    y: -0.00026273613912053406
    z: 0.0007600414683111012
    w: -0.9999997019767761
---
header:
  stamp:
    sec: 1712073974
    nanosec: 75112229
  frame_id: world
pose:
  position:
    x: 0.0614934042096138
    y: -0.07715629041194916
    z: 0.0187013391405344
  orientation:
    x: -0.00012870725186076015
    y: -0.0002760984352789819
    z: 0.0007810075767338276
    w: -0.9999997019767761
---
header:
  stamp:
    sec: 1712073974
    nanosec: 84907536
  frame_id: world
pose:
  position:
    x: 0.061469849199056625
    y: -0.07722184807062149
    z: 0.01862279698252678
  orientation:
    x: -0.00014448548608925194
    y: -0.001124227186664939
    z: 0.0009200061322189867
    w: -0.9999989867210388
---
header:
  stamp:
    sec: 1712073974
    nanosec: 94898686
  frame_id: world
pose:
  position:
    x: 0.06147526204586029
    y: -0.0772252306342125
    z: 0.01861925981938839
  orientation:
    x: -0.0001667145115789026
    y: -0.0010928844567388296
    z: 0.0009245657711289823
    w: -0.9999990463256836
---
header:
  stamp:
    sec: 1712073974
    nanosec: 95023200
  frame_id: world
pose:
  position:
    x: 0.061468180269002914
    y: -0.07722199708223343
    z: 0.01863180287182331
  orientation:
    x: -0.00013285076420288533
    y: -0.0010488866828382015
    z: 0.0009421713766641915
    w: -0.9999989867210388
---
header:
  stamp:
    sec: 1712073974
    nanosec: 104905036
  frame_id: world
pose:
  position:
    x: 0.061465855687856674
    y: -0.07721607387065887
    z: 0.018630439415574074
  orientation:
    x: -0.00010571966413408518
    y: -0.0010365104535594583
    z: 0.0009281571838073432
    w: -0.9999991059303284
---
header:
  stamp:
    sec: 1712073974
    nanosec: 114898458
  frame_id: world
pose:
  position:
    x: 0.061461564153432846
    y: -0.0772210881114006
    z: 0.01862557791173458
  orientation:
    x: -0.00015919830184429884
    y: -0.001080228015780449
    z: 0.0009052614332176745
    w: -0.9999989867210388
---
header:
  stamp:
    sec: 1712073974
    nanosec: 124887400
  frame_id: world
pose:
  position:
    x: 0.06146794185042381
    y: -0.0772256925702095
    z: 0.018619462847709656
  orientation:
    x: -0.00015242933295667171
    y: -0.0011301550548523664
    z: 0.0009421120048500597
    w: -0.9999989867210388
---
header:
  stamp:
    sec: 1712073974
    nanosec: 134891638
  frame_id: world
pose:
  position:
    x: 0.06149906665086746
    y: -0.07716456800699234
    z: 0.01870221458375454
  orientation:
    x: -0.0001411655539413914
    y: -0.0002842004469130188
    z: 0.0007520916988141835
    w: -0.9999996423721313
---
header:
  stamp:
    sec: 1712073974
    nanosec: 144897700
  frame_id: world
pose:
  position:
    x: 0.061468832194805145
    y: -0.07723195105791092
    z: 0.01862107589840889
  orientation:
    x: -0.0001424529036739841
    y: -0.0010931390570476651
    z: 0.0009551505791023374
    w: -0.999998927116394
---
header:
  stamp:
    sec: 1712073974
    nanosec: 145017958
  frame_id: world
pose:
  position:
    x: 0.06146654486656189
    y: -0.07722485810518265
    z: 0.01862175017595291
  orientation:
    x: -0.00016591756138950586
    y: -0.0010643329005688429
    z: 0.0009480426670052111
    w: -0.9999989867210388
---
header:
  stamp:
    sec: 1712073974
    nanosec: 154894866
  frame_id: world
pose:
  position:
    x: 0.061469241976737976
    y: -0.07722670584917068
    z: 0.01862277276813984
  orientation:
    x: -0.00018677687330637127
    y: -0.0011103200959041715
    z: 0.0009200358181260526
    w: -0.9999990463256836
---
header:
  stamp:
    sec: 1712073974
    nanosec: 164894464
  frame_id: world
pose:
  position:
    x: 0.06149567291140556
    y: -0.07716169208288193
    z: 0.01869538612663746
  orientation:
    x: -0.00013738668349105865
    y: -0.0003383735893294215
    z: 0.0007717463304288685
    w: -0.9999996423721313
---
header:
  stamp:
    sec: 1712073974
    nanosec: 174925839
  frame_id: world
pose:
  position:
    x: 0.06146934628486633
    y: -0.0772271528840065
    z: 0.018626635894179344
  orientation:
    x: -0.00012589170364663005
    y: -0.0010682811262086034
    z: 0.0009275832562707365
    w: -0.9999990463256836
---
header:
  stamp:
    sec: 1712073974
    nanosec: 184886844
  frame_id: world
pose:
  position:
    x: 0.061463095247745514
    y: -0.07722397893667221
    z: 0.01862613670527935
  orientation:
    x: -0.00012900633737444878
    y: -0.001049001351930201
    z: 0.0009074070840142667
    w: -0.9999990463256836
---
header:
  stamp:
    sec: 1712073974
    nanosec: 194891627
  frame_id: world
pose:
  position:
    x: 0.06146642193198204
    y: -0.07722974568605423
    z: 0.018622910603880882
  orientation:
    x: -0.0001443712826585397
    y: -0.001046585151925683
    z: 0.0009187915711663663
    w: -0.9999990463256836
---
header:
  stamp:
    sec: 1712073974
    nanosec: 204894649
  frame_id: world
pose:
  position:
    x: 0.061465200036764145
    y: -0.07722197473049164
    z: 0.018620403483510017
  orientation:
    x: -0.0001462377840653062
    y: -0.0011308873072266579
    z: 0.0009607757674530149
    w: -0.999998927116394
---
header:
  stamp:
    sec: 1712073974
    nanosec: 205027675
  frame_id: world
pose:
  position:
    x: 0.06146677955985069
    y: -0.07723191380500793
    z: 0.018616173416376114
  orientation:
    x: -0.00012852801592089236
    y: -0.0010827486403286457
    z: 0.0009478042484261096
    w: -0.9999989867210388
---
header:
  stamp:
    sec: 1712073974
    nanosec: 214904263
  frame_id: world
pose:
  position:
    x: 0.061464037746191025
    y: -0.07723241299390793
    z: 0.018624356016516685
  orientation:
    x: -0.0001399013854097575
    y: -0.001083485083654523
    z: 0.0009760645916685462
    w: -0.9999989867210388
---
header:
  stamp:
    sec: 1712073974
    nanosec: 224893205
  frame_id: world
pose:
  position:
    x: 0.06146439537405968
    y: -0.07722688466310501
    z: 0.018629541620612144
  orientation:
    x: -0.0001288927742280066
    y: -0.00101697095669806
    z: 0.0009638826595619321
    w: -0.9999989867210388
---
header:
  stamp:
    sec: 1712073974
    nanosec: 234923012
  frame_id: world
pose:
  position:
    x: 0.06146722659468651
    y: -0.07722534239292145
    z: 0.01862248033285141
  orientation:
    x: -0.000129737876704894
    y: -0.0010749191278591752
    z: 0.0009408231708221138
    w: -0.9999990463256836
---
header:
  stamp:
    sec: 1712073974
    nanosec: 244918130
  frame_id: world
pose:
  position:
    x: 0.061464808881282806
    y: -0.07723180204629898
    z: 0.018618114292621613
  orientation:
    x: -0.0001460289058741182
    y: -0.0010864841751754284
    z: 0.0009529154049232602
    w: -0.999998927116394
---
header:
  stamp:
    sec: 1712073974
    nanosec: 245082901
  frame_id: world
pose:
  position:
    x: 0.06148872524499893
    y: -0.07721743732690811
    z: 0.0186461191624403
  orientation:
    x: -0.00014564936282113194
    y: -0.0008334536687470973
    z: 0.0010025136871263385
    w: -0.9999991655349731
---
header:
  stamp:
    sec: 1712073974
    nanosec: 254904416
  frame_id: world
pose:
  position:
    x: 0.0614679679274559
    y: -0.07722116261720657
    z: 0.018625201657414436
  orientation:
    x: -0.00012787773448508233
    y: -0.0010864741634577513
    z: 0.0009570653783157468
    w: -0.9999989867210388
---
header:
  stamp:
    sec: 1712073974
    nanosec: 264896110
  frame_id: world
pose:
  position:
    x: 0.061465855687856674
    y: -0.07722122222185135
    z: 0.018622390925884247
  orientation:
    x: -0.00010636402294039726
    y: -0.0011025962885469198
    z: 0.0009500543819740415
    w: -0.999998927116394
---
header:
  stamp:
    sec: 1712073974
    nanosec: 274891772
  frame_id: world
pose:
  position:
    x: 0.06147119030356407
    y: -0.07722315937280655
    z: 0.018629463389515877
  orientation:
    x: -0.0001433612051187083
    y: -0.001031058025546372
    z: 0.0009451070218347013
    w: -0.9999990463256836
---
header:
  stamp:
    sec: 1712073974
    nanosec: 284893866
  frame_id: world
pose:
  position:
    x: 0.06146455928683281
    y: -0.07721979916095734
    z: 0.018627645447850227
  orientation:
    x: -0.00013568946451414376
    y: -0.0011118643451482058
    z: 0.0009309808374382555
    w: -0.999998927116394
---
header:
  stamp:
    sec: 1712073974
    nanosec: 294894520
  frame_id: world
pose:
  position:
    x: 0.06145715340971947
    y: -0.0772244781255722
    z: 0.01862482540309429
  orientation:
    x: -0.0001413635618519038
    y: -0.0010618524393066764
    z: 0.0009760494576767087
    w: -0.999998927116394
---
header:
  stamp:
    sec: 1712073974
    nanosec: 304899110
  frame_id: world
pose:
  position:
    x: 0.061465874314308167
    y: -0.0772184208035469
    z: 0.01862470619380474
  orientation:
    x: -0.0001286183251067996
    y: -0.0010243812575936317
    z: 0.0009298333316110075
    w: -0.9999991059303284
---
header:
  stamp:
    sec: 1712073974
    nanosec: 305021064
  frame_id: world
pose:
  position:
    x: 0.0614931657910347
    y: -0.07715655118227005
    z: 0.01870730333030224
  orientation:
    x: -0.00010956218466162682
    y: -0.00028076753369532526
    z: 0.0007763358880765736
    w: -0.9999997019767761
---
header:
  stamp:
    sec: 1712073974
    nanosec: 314900212
  frame_id: world
pose:
  position:
    x: 0.06146194040775299
    y: -0.07722727209329605
    z: 0.018628684803843498
  orientation:
    x: -0.00011010310117853805
    y: -0.001060180482454598
    z: 0.0009640391217544675
    w: -0.9999989867210388
---
header:
  stamp:
    sec: 1712073974
    nanosec: 324893762
  frame_id: world
pose:
  position:
    x: 0.061465200036764145
    y: -0.0772266536951065
    z: 0.0186227485537529
  orientation:
    x: -0.00011881320097018033
    y: -0.0010553530883044004
    z: 0.000969858025200665
    w: -0.9999989867210388
---
header:
  stamp:
    sec: 1712073974
    nanosec: 334898256
  frame_id: world
pose:
  position:
    x: 0.0614631287753582
    y: -0.07722308486700058
    z: 0.018628234043717384
  orientation:
    x: -0.00012254409375600517
    y: -0.0010515168542042375
    z: 0.0009791339980438352
    w: -0.9999989867210388
---
header:
  stamp:
    sec: 1712073974
    nanosec: 344902207
  frame_id: world
pose:
  position:
    x: 0.06148785352706909
    y: -0.0771576315164566
    z: 0.018703361973166466
  orientation:
    x: -0.00018136478320229799
    y: -0.0003426239127293229
    z: 0.0007677528192289174
    w: -0.9999996423721313
---
header:
  stamp:
    sec: 1712073974
    nanosec: 354893901
  frame_id: world
pose:
  position:
    x: 0.06145865470170975
    y: -0.0772281065583229
    z: 0.018626375123858452
  orientation:
    x: -0.0001248625630978495
    y: -0.0010684990556910634
    z: 0.0009395935921929777
    w: -0.9999990463256836
---
header:
  stamp:
    sec: 1712073974
    nanosec: 355001614
  frame_id: world
pose:
  position:
    x: 0.06146041676402092
    y: -0.07722688466310501
    z: 0.01862138696014881
  orientation:
    x: -0.00014144094893708825
    y: -0.0010826948564499617
    z: 0.0009123022318817675
    w: -0.9999989867210388
---
header:
  stamp:
    sec: 1712073974
    nanosec: 364902139
  frame_id: world
pose:
  position:
    x: 0.06148847937583923
    y: -0.07721582800149918
    z: 0.018644273281097412
  orientation:
    x: -0.00013353886606637388
    y: -0.0008130914065986872
    z: 0.0009745069546625018
    w: -0.9999992251396179
---
header:
  stamp:
    sec: 1712073974
    nanosec: 374891113
  frame_id: world
pose:
  position:
    x: 0.0614614263176918
    y: -0.0772290751338005
    z: 0.018620586022734642
  orientation:
    x: -0.0001521837111795321
    y: -0.001096427789889276
    z: 0.0009509857045486569
    w: -0.999998927116394
---
header:
  stamp:
    sec: 1712073974
    nanosec: 384892695
  frame_id: world
pose:
  position:
    x: 0.06146442890167236
    y: -0.07722300291061401
    z: 0.018626125529408455
  orientation:
    x: -0.00010601450048852712
    y: -0.0010580710368230939
    z: 0.0009243571548722684
    w: -0.9999990463256836
---
header:
  stamp:
    sec: 1712073974
    nanosec: 394894789
  frame_id: world
pose:
  position:
    x: 0.061490800231695175
    y: -0.07715803384780884
    z: 0.01869918592274189
  orientation:
    x: -0.00010823559568962082
    y: -0.0002786826516967267
    z: 0.0007753971149213612
    w: -0.9999997019767761
---
header:
  stamp:
    sec: 1712073974
    nanosec: 404895571
  frame_id: world
pose:
  position:
    x: 0.061462707817554474
    y: -0.07722759991884232
    z: 0.018621079623699188
  orientation:
    x: -0.000147334358189255
    y: -0.001055769738741219
    z: 0.0009596729651093483
    w: -0.9999990463256836
---
header:
  stamp:
    sec: 1712073974
    nanosec: 405003637
  frame_id: world
pose:
  position:
    x: 0.061463408172130585
    y: -0.07722469419240952
    z: 0.01862599141895771
  orientation:
    x: -0.00013465869415085763
    y: -0.0011003260733559728
    z: 0.0009116839501075447
    w: -0.9999990463256836
---
header:
  stamp:
    sec: 1712073974
    nanosec: 414904321
  frame_id: world
pose:
  position:
    x: 0.06148932874202728
    y: -0.07715665549039841
    z: 0.018703492358326912
  orientation:
    x: -0.00011351607827236876
    y: -0.00029506010469049215
    z: 0.0007578733493573964
    w: -0.9999997019767761
---
header:
  stamp:
    sec: 1712073974
    nanosec: 424897039
  frame_id: world
pose:
  position:
    x: 0.06146339699625969
    y: -0.07722636312246323
    z: 0.018624624237418175
  orientation:
    x: -0.00011769498087232932
    y: -0.001040059607475996
    z: 0.0009618187323212624
    w: -0.9999990463256836
---
header:
  stamp:
    sec: 1712073974
    nanosec: 434897726
  frame_id: world
pose:
  position:
    x: 0.06145944818854332
    y: -0.07723056524991989
    z: 0.018622880801558495
  orientation:
    x: -0.00010973190364893526
    y: -0.0010041968198493123
    z: 0.0009512612596154213
    w: -0.9999990463256836
---
header:
  stamp:
    sec: 1712073974
    nanosec: 444933228
  frame_id: world
pose:
  position:
    x: 0.06149563193321228
    y: -0.07715810090303421
    z: 0.01870509795844555
  orientation:
    x: -0.00010614608618197963
    y: -0.00028713903157040477
    z: 0.0008043351699598134
    w: -0.9999997019767761
---
header:
  stamp:
    sec: 1712073974
    nanosec: 445106767
  frame_id: world
pose:
  position:
    x: 0.061490725725889206
    y: -0.07716093212366104
    z: 0.01870616339147091
  orientation:
    x: -0.00015074694238137454
    y: -0.0003496967547107488
    z: 0.0007732589729130268
    w: -0.9999997019767761
---
header:
  stamp:
    sec: 1712073974
    nanosec: 454903674
  frame_id: world
pose:
  position:
    x: 0.061459556221961975
    y: -0.07722293585538864
    z: 0.01862708106637001
  orientation:
    x: -0.00012049988436046988
    y: -0.0010925987735390663
    z: 0.0009365538717247546
    w: -0.9999989867210388
---
header:
  stamp:
    sec: 1712073974
    nanosec: 464900392
  frame_id: world
pose:
  position:
    x: 0.061458274722099304
    y: -0.07722054421901703
    z: 0.018617892637848854
  orientation:
    x: -0.0001321780146099627
    y: -0.0011065389262512326
    z: 0.0009497414575889707
    w: -0.999998927116394
---
header:
  stamp:
    sec: 1712073974
    nanosec: 474891766
  frame_id: world
pose:
  position:
    x: 0.06145701929926872
    y: -0.07721913605928421
    z: 0.01863236166536808
  orientation:
    x: -0.00011566534521989524
    y: -0.001137445098720491
    z: 0.0009420449496246874
    w: -0.999998927116394
---
header:
  stamp:
    sec: 1712073974
    nanosec: 484897572
  frame_id: world
pose:
  position:
    x: 0.061461977660655975
    y: -0.07722251117229462
    z: 0.018627064302563667
  orientation:
    x: -0.00011520382395246997
    y: -0.0010467633837834
    z: 0.000934653973672539
    w: -0.9999989867210388
---
header:
  stamp:
    sec: 1712073974
    nanosec: 494897938
  frame_id: world
pose:
  position:
    x: 0.0614829957485199
    y: -0.07721200585365295
    z: 0.018655063584446907
  orientation:
    x: -0.00014117911632638425
    y: -0.000842979468870908
    z: 0.0009658344788476825
    w: -0.9999992251396179
---
header:
  stamp:
    sec: 1712073974
    nanosec: 495003540
  frame_id: world
pose:
  position:
    x: 0.061485808342695236
    y: -0.0771595761179924
    z: 0.01871512271463871
  orientation:
    x: -0.00011864243424497545
    y: -0.00026424581301398575
    z: 0.0007756504346616566
    w: -0.9999996423721313
---
header:
  stamp:
    sec: 1712073974
    nanosec: 504931809
  frame_id: world
pose:
  position:
    x: 0.061487920582294464
    y: -0.0771571695804596
    z: 0.018709303811192513
  orientation:
    x: -0.0001742732711136341
    y: -0.0003192070871591568
    z: 0.0007828402449376881
    w: -0.9999996423721313
---
header:
  stamp:
    sec: 1712073974
    nanosec: 514913647
  frame_id: world
pose:
  position:
    x: 0.061455994844436646
    y: -0.07722174376249313
    z: 0.01863013207912445
  orientation:
    x: -0.00013502876390703022
    y: -0.0010945238173007965
    z: 0.000952155445702374
    w: -0.999998927116394
---
header:
  stamp:
    sec: 1712073974
    nanosec: 524897341
  frame_id: world
pose:
  position:
    x: 0.06146206706762314
    y: -0.07722873240709305
    z: 0.018630238249897957
  orientation:
    x: -0.00011639127478701994
    y: -0.0010467112297192216
    z: 0.000935920572374016
    w: -0.9999989867210388
---
header:
  stamp:
    sec: 1712073974
    nanosec: 534898667
  frame_id: world
pose:
  position:
    x: 0.061492711305618286
    y: -0.07715963572263718
    z: 0.01871327869594097
  orientation:
    x: -0.00012496564886532724
    y: -0.0003223727107979357
    z: 0.0007631409098394215
    w: -0.9999996423721313
---
header:
  stamp:
    sec: 1712073974
    nanosec: 544901785
  frame_id: world
pose:
  position:
    x: 0.0614633709192276
    y: -0.07722585648298264
    z: 0.01862945966422558
  orientation:
    x: -0.0001367824588669464
    y: -0.0010760474251583219
    z: 0.0009284624247811735
    w: -0.9999990463256836
---
header:
  stamp:
    sec: 1712073974
    nanosec: 554897543
  frame_id: world
pose:
  position:
    x: 0.06149234622716904
    y: -0.07715965807437897
    z: 0.018704235553741455
  orientation:
    x: -0.0001174721255665645
    y: -0.0002445330610498786
    z: 0.0007983821560628712
    w: -0.9999997019767761
---
header:
  stamp:
    sec: 1712073974
    nanosec: 554998889
  frame_id: world
pose:
  position:
    x: 0.061465777456760406
    y: -0.07722298055887222
    z: 0.018638459965586662
  orientation:
    x: -0.00011271207040408626
    y: -0.0010507957777008414
    z: 0.0009255417971871793
    w: -0.9999990463256836
---
header:
  stamp:
    sec: 1712073974
    nanosec: 564905333
  frame_id: world
pose:
  position:
    x: 0.061463188380002975
    y: -0.07722620666027069
    z: 0.01863067038357258
  orientation:
    x: -0.00014162885781843215
    y: -0.0010997103527188301
    z: 0.0009295130730606616
    w: -0.9999989867210388
---
header:
  stamp:
    sec: 1712073974
    nanosec: 574896611
  frame_id: world
pose:
  position:
    x: 0.06146444007754326
    y: -0.07722267508506775
    z: 0.018637575209140778
  orientation:
    x: -0.0001384873321512714
    y: -0.0010628540767356753
    z: 0.0009635102469474077
    w: -0.9999990463256836
---
header:
  stamp:
    sec: 1712073974
    nanosec: 584897969
  frame_id: world
pose:
  position:
    x: 0.061452917754650116
    y: -0.07721713930368423
    z: 0.018626108765602112
  orientation:
    x: -0.00014552853826899081
    y: -0.0011113446671515703
    z: 0.0009286115528084338
    w: -0.999998927116394
---
header:
  stamp:
    sec: 1712073974
    nanosec: 594898623
  frame_id: world
pose:
  position:
    x: 0.061461206525564194
    y: -0.07722822576761246
    z: 0.018624044954776764
  orientation:
    x: -0.00014004269905854017
    y: -0.0011037871008738875
    z: 0.0009078170987777412
    w: -0.9999990463256836
---
header:
  stamp:
    sec: 1712073974
    nanosec: 604896366
  frame_id: world
pose:
  position:
    x: 0.06145739182829857
    y: -0.07722099870443344
    z: 0.018625512719154358
  orientation:
    x: -0.00012710016744676977
    y: -0.0010824942728504539
    z: 0.0009318823576904833
    w: -0.9999989867210388
---
header:
  stamp:
    sec: 1712073974
    nanosec: 605000815
  frame_id: world
pose:
  position:
    x: 0.06146229803562164
    y: -0.07721767574548721
    z: 0.018623560667037964
  orientation:
    x: -0.00013488902186509222
    y: -0.0010908102849498391
    z: 0.0009557019220665097
    w: -0.999998927116394
---
header:
  stamp:
    sec: 1712073974
    nanosec: 614928668
  frame_id: world
pose:
  position:
    x: 0.06146206706762314
    y: -0.07721465080976486
    z: 0.018632110208272934
  orientation:
    x: -0.00012782732665073127
    y: -0.0010858656605705619
    z: 0.0009467686177231371
    w: -0.9999989867210388
---
header:
  stamp:
    sec: 1712073974
    nanosec: 624897386
  frame_id: world
pose:
  position:
    x: 0.06148788332939148
    y: -0.07715457677841187
    z: 0.018695781007409096
  orientation:
    x: -8.728326065465808e-05
    y: -0.00029727898072451353
    z: 0.0007584544946439564
    w: -0.9999996423721313
---
header:
  stamp:
    sec: 1712073974
    nanosec: 634904344
  frame_id: world
pose:
  position:
    x: 0.061458706855773926
    y: -0.07721861451864243
    z: 0.01861933432519436
  orientation:
    x: -0.00013553605822380632
    y: -0.0010360396699979901
    z: 0.0009309735032729805
    w: -0.9999991059303284
---
header:
  stamp:
    sec: 1712073974
    nanosec: 644901510
  frame_id: world
pose:
  position:
    x: 0.06146535277366638
    y: -0.0772186741232872
    z: 0.018620863556861877
  orientation:
    x: -0.00013784981274511665
    y: -0.0010872265556827188
    z: 0.0009407859179191291
    w: -0.9999990463256836
---
header:
  stamp:
    sec: 1712073974
    nanosec: 645008616
  frame_id: world
pose:
  position:
    x: 0.061455994844436646
    y: -0.07721837610006332
    z: 0.018622318282723427
  orientation:
    x: -0.00012755251373164356
    y: -0.001116422237828374
    z: 0.0009355629445053637
    w: -0.999998927116394
---
header:
  stamp:
    sec: 1712073974
    nanosec: 654904628
  frame_id: world
pose:
  position:
    x: 0.06145941838622093
    y: -0.0772169679403305
    z: 0.018628021702170372
  orientation:
    x: -0.00012057967251166701
    y: -0.0010654228972271085
    z: 0.0009180837660096586
    w: -0.9999990463256836
---
header:
  stamp:
    sec: 1712073974
    nanosec: 664905218
  frame_id: world
pose:
  position:
    x: 0.06146800518035889
    y: -0.07722378522157669
    z: 0.0186191163957119
  orientation:
    x: -0.0001259166601812467
    y: -0.0010756271658465266
    z: 0.0009372245403937995
    w: -0.9999990463256836
---
header:
  stamp:
    sec: 1712073974
    nanosec: 674894384
  frame_id: world
pose:
  position:
    x: 0.061455707997083664
    y: -0.07721918076276779
    z: 0.018623994663357735
  orientation:
    x: -0.0001384607021464035
    y: -0.001057346467860043
    z: 0.000926748791243881
    w: -0.9999990463256836
---
header:
  stamp:
    sec: 1712073974
    nanosec: 684907199
  frame_id: world
pose:
  position:
    x: 0.0614638589322567
    y: -0.07721563428640366
    z: 0.018624095246195793
  orientation:
    x: -0.00011071673361584544
    y: -0.0010646508308127522
    z: 0.0009602096397429705
    w: -0.9999990463256836
---
header:
  stamp:
    sec: 1712073974
    nanosec: 694902637
  frame_id: world
pose:
  position:
    x: 0.061454933136701584
    y: -0.07722288370132446
    z: 0.018622053787112236
  orientation:
    x: -0.00012463706661947072
    y: -0.0010381035972386599
    z: 0.0009385208250023425
    w: -0.9999989867210388
---
header:
  stamp:
    sec: 1712073974
    nanosec: 695008815
  frame_id: world
pose:
  position:
    x: 0.06148619204759598
    y: -0.07715185731649399
    z: 0.01870855875313282
  orientation:
    x: -0.00011497369268909097
    y: -0.00027037455583922565
    z: 0.0007851275731809437
    w: -0.9999996423721313
---
header:
  stamp:
    sec: 1712073974
    nanosec: 704910619
  frame_id: world
pose:
  position:
    x: 0.061460018157958984
    y: -0.07722952216863632
    z: 0.018621280789375305
  orientation:
    x: -9.802939894143492e-05
    y: -0.0010588230798020959
    z: 0.0009549568640068173
    w: -0.9999989867210388
---
header:
  stamp:
    sec: 1712073974
    nanosec: 714910473
  frame_id: world
pose:
  position:
    x: 0.06148400530219078
    y: -0.07715598493814468
    z: 0.0187056977301836
  orientation:
    x: -0.00011357275070622563
    y: -0.0002819557557813823
    z: 0.0007888975669629872
    w: -0.9999996423721313
---
header:
  stamp:
    sec: 1712073974
    nanosec: 724898615
  frame_id: world
pose:
  position:
    x: 0.061455290764570236
    y: -0.07722250372171402
    z: 0.018627407029271126
  orientation:
    x: -9.787064482225105e-05
    y: -0.0010588755831122398
    z: 0.0009323666454292834
    w: -0.9999989867210388
---
header:
  stamp:
    sec: 1712073974
    nanosec: 734901861
  frame_id: world
pose:
  position:
    x: 0.061458852142095566
    y: -0.07722431421279907
    z: 0.01861957646906376
  orientation:
    x: -9.165691881207749e-05
    y: -0.0011178182903677225
    z: 0.0009296024800278246
    w: -0.9999989867210388
---
header:
  stamp:
    sec: 1712073974
    nanosec: 744903731
  frame_id: world
pose:
  position:
    x: 0.061454471200704575
    y: -0.07722660899162292
    z: 0.018629590049386024
  orientation:
    x: -0.00011254183482378721
    y: -0.0010501679498702288
    z: 0.0009284699917770922
    w: -0.9999989867210388
---
header:
  stamp:
    sec: 1712073974
    nanosec: 754900161
  frame_id: world
pose:
  position:
    x: 0.06145838648080826
    y: -0.07722356915473938
    z: 0.018624398857355118
  orientation:
    x: -0.00011885739513672888
    y: -0.0011032712645828724
    z: 0.0009378949762322009
    w: -0.999998927116394
---
header:
  stamp:
    sec: 1712073974
    nanosec: 755004163
  frame_id: world
pose:
  position:
    x: 0.06145515665411949
    y: -0.0772239938378334
    z: 0.01862805336713791
  orientation:
    x: -0.00012054374383296818
    y: -0.001090572914108634
    z: 0.0009482065797783434
    w: -0.999998927116394
---
header:
  stamp:
    sec: 1712073974
    nanosec: 764913808
  frame_id: world
pose:
  position:
    x: 0.06145530566573143
    y: -0.07722825556993484
    z: 0.018628530204296112
  orientation:
    x: -0.0001341512834187597
    y: -0.001076360116712749
    z: 0.0009475881233811378
    w: -0.9999990463256836
---
header:
  stamp:
    sec: 1712073974
    nanosec: 774898014
  frame_id: world
pose:
  position:
    x: 0.06145595759153366
    y: -0.07722651958465576
    z: 0.018625473603606224
  orientation:
    x: -0.00014236118295229971
    y: -0.00106360565405339
    z: 0.000944041705224663
    w: -0.9999989867210388
---
header:
  stamp:
    sec: 1712073974
    nanosec: 784839243
  frame_id: world
pose:
  position:
    x: 0.06148277223110199
    y: -0.07715824246406555
    z: 0.01870652846992016
  orientation:
    x: -0.00014452685718424618
    y: -0.00028890380053780973
    z: 0.0007799270679242909
    w: -0.9999996423721313
---
header:
  stamp:
    sec: 1712073974
    nanosec: 794903898
  frame_id: world
pose:
  position:
    x: 0.061455510556697845
    y: -0.07722406089305878
    z: 0.018632056191563606
  orientation:
    x: -0.00013073346053715795
    y: -0.0010853721760213375
    z: 0.0009502555476501584
    w: -0.999998927116394
---
header:
  stamp:
    sec: 1712073974
    nanosec: 804902440
  frame_id: world
pose:
  position:
    x: 0.061485886573791504
    y: -0.07715647667646408
    z: 0.018712284043431282
  orientation:
    x: -0.00014087384624872357
    y: -0.00030093116220086813
    z: 0.0007933977176435292
    w: -0.9999996423721313
---
header:
  stamp:
    sec: 1712073974
    nanosec: 805011082
  frame_id: world
pose:
  position:
    x: 0.06145666539669037
    y: -0.07722253352403641
    z: 0.018631288781762123
  orientation:
    x: -0.00012461846927180886
    y: -0.0010801451280713081
    z: 0.0009436244727112353
    w: -0.9999989867210388
---
header:
  stamp:
    sec: 1712073974
    nanosec: 814914934
  frame_id: world
pose:
  position:
    x: 0.06145266816020012
    y: -0.07722408324480057
    z: 0.01862751692533493
  orientation:
    x: -0.00011850964074255899
    y: -0.0010745739564299583
    z: 0.0009430433274246752
    w: -0.9999989867210388
---
header:
  stamp:
    sec: 1712073974
    nanosec: 824907908
  frame_id: world
pose:
  position:
    x: 0.06145792827010155
    y: -0.07721806317567825
    z: 0.01862853765487671
  orientation:
    x: -0.0001520190417068079
    y: -0.0010926229879260063
    z: 0.0009505610214546323
    w: -0.999998927116394
---
header:
  stamp:
    sec: 1712073974
    nanosec: 834905842
  frame_id: world
pose:
  position:
    x: 0.061461374163627625
    y: -0.07721962779760361
    z: 0.018623219802975655
  orientation:
    x: -0.000160157578648068
    y: -0.0010907667456194758
    z: 0.0009193876176141202
    w: -0.9999990463256836
---
header:
  stamp:
    sec: 1712073974
    nanosec: 844908513
  frame_id: world
pose:
  position:
    x: 0.06145811825990677
    y: -0.07722553610801697
    z: 0.01862403191626072
  orientation:
    x: -0.00014913597260601819
    y: -0.001135375932790339
    z: 0.000945986423175782
    w: -0.9999988675117493
---
header:
  stamp:
    sec: 1712073974
    nanosec: 854906511
  frame_id: world
pose:
  position:
    x: 0.061455484479665756
    y: -0.0772186741232872
    z: 0.018625162541866302
  orientation:
    x: -0.0001677163236308843
    y: -0.0011428167345002294
    z: 0.0009570954134687781
    w: -0.999998927116394
---
header:
  stamp:
    sec: 1712073974
    nanosec: 855029393
  frame_id: world
pose:
  position:
    x: 0.06145535036921501
    y: -0.07722459733486176
    z: 0.018628178164362907
  orientation:
    x: -0.00010195421782555059
    y: -0.0010691597126424313
    z: 0.0009455020190216601
    w: -0.9999989867210388
---
header:
  stamp:
    sec: 1712073974
    nanosec: 864915613
  frame_id: world
pose:
  position:
    x: 0.06145758926868439
    y: -0.07721703499555588
    z: 0.01862809993326664
  orientation:
    x: -0.00013751785445492715
    y: -0.0010441344929859042
    z: 0.0009174653678201139
    w: -0.9999991059303284
---
header:
  stamp:
    sec: 1712073974
    nanosec: 874902379
  frame_id: world
pose:
  position:
    x: 0.06145875155925751
    y: -0.07722597569227219
    z: 0.018623078241944313
  orientation:
    x: -0.00016956521722022444
    y: -0.0010899754706770182
    z: 0.0009267042041756213
    w: -0.9999989867210388
---
header:
  stamp:
    sec: 1712073974
    nanosec: 884909625
  frame_id: world
pose:
  position:
    x: 0.06148971617221832
    y: -0.077154241502285
    z: 0.01870233565568924
  orientation:
    x: -0.00013268798647914082
    y: -0.0002593926910776645
    z: 0.0007820281316526234
    w: -0.9999996423721313
---
header:
  stamp:
    sec: 1712073974
    nanosec: 894901735
  frame_id: world
pose:
  position:
    x: 0.06146116554737091
    y: -0.07722111791372299
    z: 0.01862107776105404
  orientation:
    x: -0.00018569359963294119
    y: -0.0011383204255253077
    z: 0.0009222040534950793
    w: -0.9999989867210388
---
header:
  stamp:
    sec: 1712073974
    nanosec: 904904789
  frame_id: world
pose:
  position:
    x: 0.06146431714296341
    y: -0.0772199034690857
    z: 0.018623260781168938
  orientation:
    x: -0.00013971418957225978
    y: -0.00110314367339015
    z: 0.0009394223452545702
    w: -0.999998927116394
---
header:
  stamp:
    sec: 1712073974
    nanosec: 905021047
  frame_id: world
pose:
  position:
    x: 0.06146387755870819
    y: -0.07722228765487671
    z: 0.018618173897266388
  orientation:
    x: -0.00015734904445707798
    y: -0.0011139002162963152
    z: 0.0009541820036247373
    w: -0.999998927116394
---
header:
  stamp:
    sec: 1712073974
    nanosec: 914915139
  frame_id: world
pose:
  position:
    x: 0.061492033302783966
    y: -0.07715582102537155
    z: 0.01870390586555004
  orientation:
    x: -0.0001138978695962578
    y: -0.000321902334690094
    z: 0.0007673281361348927
    w: -0.9999996423721313
---
header:
  stamp:
    sec: 1712073974
    nanosec: 924907025
  frame_id: world
pose:
  position:
    x: 0.06145789474248886
    y: -0.07721944898366928
    z: 0.018623851239681244
  orientation:
    x: -0.0001569358428241685
    y: -0.001077272929251194
    z: 0.0009563128696754575
    w: -0.999998927116394
---
header:
  stamp:
    sec: 1712073974
    nanosec: 934909152
  frame_id: world
pose:
  position:
    x: 0.06146227940917015
    y: -0.07722381502389908
    z: 0.018627867102622986
  orientation:
    x: -0.00013722504081670195
    y: -0.001007771585136652
    z: 0.0009207063703797758
    w: -0.9999990463256836
---
header:
  stamp:
    sec: 1712073974
    nanosec: 944910414
  frame_id: world
pose:
  position:
    x: 0.06145360320806503
    y: -0.07722380757331848
    z: 0.018630051985383034
  orientation:
    x: -0.00015532867109868675
    y: -0.0010787505889311433
    z: 0.0009416501852683723
    w: -0.9999990463256836
---
header:
  stamp:
    sec: 1712073974
    nanosec: 954904284
  frame_id: world
pose:
  position:
    x: 0.06144971400499344
    y: -0.07722049951553345
    z: 0.0186314657330513
  orientation:
    x: -0.00013912294525653124
    y: -0.0010210488690063357
    z: 0.0009416723041795194
    w: -0.9999990463256836
---
header:
  stamp:
    sec: 1712073974
    nanosec: 955020350
  frame_id: world
pose:
  position:
    x: 0.06145774573087692
    y: -0.0772232636809349
    z: 0.01863163150846958
  orientation:
    x: -0.0001578867231728509
    y: -0.0011072170455008745
    z: 0.0009572516428306699
    w: -0.999998927116394
---
header:
  stamp:
    sec: 1712073974
    nanosec: 964923178
  frame_id: world
pose:
  position:
    x: 0.06145815551280975
    y: -0.07722853124141693
    z: 0.018627649173140526
  orientation:
    x: -0.00014738229219801724
    y: -0.0010817626025527716
    z: 0.000909612572286278
    w: -0.9999989867210388
---
header:
  stamp:
    sec: 1712073974
    nanosec: 974906264
  frame_id: world
pose:
  position:
    x: 0.06145621836185455
    y: -0.07722251862287521
    z: 0.018633229658007622
  orientation:
    x: -0.00012937496649101377
    y: -0.0010286925826221704
    z: 0.0009683826938271523
    w: -0.9999990463256836
---
header:
  stamp:
    sec: 1712073974
    nanosec: 984912326
  frame_id: world
pose:
  position:
    x: 0.06145496666431427
    y: -0.07722676545381546
    z: 0.018633821979165077
  orientation:
    x: -0.00015091763634700328
    y: -0.0010844473727047443
    z: 0.0009410242200829089
    w: -0.9999989867210388
---
header:
  stamp:
    sec: 1712073974
    nanosec: 994908340
  frame_id: world
pose:
  position:
    x: 0.061453744769096375
    y: -0.07722009718418121
    z: 0.018633102998137474
  orientation:
    x: -0.00018421479035168886
    y: -0.0011127800680696964
    z: 0.0009329105378128588
    w: -0.9999989867210388
---
header:
  stamp:
    sec: 1712073975
    nanosec: 4912994
  frame_id: world
pose:
  position:
    x: 0.06145355850458145
    y: -0.07722470909357071
    z: 0.018628640100359917
  orientation:
    x: -0.00018264057871419936
    y: -0.001113872742280364
    z: 0.0009486089111305773
    w: -0.9999989867210388
---
header:
  stamp:
    sec: 1712073975
    nanosec: 5047461
  frame_id: world
pose:
  position:
    x: 0.0614885538816452
    y: -0.07716480642557144
    z: 0.018707571551203728
  orientation:
    x: -0.00013757079432252795
    y: -0.00027657111058942974
    z: 0.000772387080360204
    w: -0.9999996423721313
---
header:
  stamp:
    sec: 1712073975
    nanosec: 14922481
  frame_id: world
pose:
  position:
    x: 0.06148601695895195
    y: -0.07715944200754166
    z: 0.018713638186454773
  orientation:
    x: -0.0001648404577281326
    y: -0.00032799382461234927
    z: 0.0007907676626928151
    w: -0.9999997019767761
---
header:
  stamp:
    sec: 1712073975
    nanosec: 24907903
  frame_id: world
pose:
  position:
    x: 0.0614553801715374
    y: -0.07721958309412003
    z: 0.018639758229255676
  orientation:
    x: -0.00016923886141739786
    y: -0.0011181036243215203
    z: 0.0009373436332680285
    w: -0.999998927116394
---
header:
  stamp:
    sec: 1712073975
    nanosec: 34912557
  frame_id: world
pose:
  position:
    x: 0.06145424395799637
    y: -0.07721986621618271
    z: 0.018638059496879578
  orientation:
    x: -0.00013115898764226586
    y: -0.0011023529805243015
    z: 0.0009272108436562121
    w: -0.999998927116394
---
header:
  stamp:
    sec: 1712073975
    nanosec: 44908123
  frame_id: world
pose:
  position:
    x: 0.06145220249891281
    y: -0.07722348719835281
    z: 0.01863388903439045
  orientation:
    x: -8.679858729010448e-05
    y: -0.0010409335372969508
    z: 0.0009559552418068051
    w: -0.9999989867210388
---
header:
  stamp:
    sec: 1712073975
    nanosec: 54908777
  frame_id: world
pose:
  position:
    x: 0.061488088220357895
    y: -0.07715613394975662
    z: 0.01871994137763977
  orientation:
    x: -0.00010583574476186186
    y: -0.00028783571906387806
    z: 0.000800162844825536
    w: -0.9999997019767761
---
header:
  stamp:
    sec: 1712073975
    nanosec: 55013899
  frame_id: world
pose:
  position:
    x: 0.06145774573087692
    y: -0.07722833007574081
    z: 0.018634840846061707
  orientation:
    x: -0.00017369806300848722
    y: -0.001100885565392673
    z: 0.0009472231031395495
    w: -0.999998927116394
---
header:
  stamp:
    sec: 1712073975
    nanosec: 64916439
  frame_id: world
pose:
  position:
    x: 0.061457108706235886
    y: -0.07722709327936172
    z: 0.018626900389790535
  orientation:
    x: -0.000146864666021429
    y: -0.0010770129738375545
    z: 0.0009418213157914579
    w: -0.9999990463256836
---
header:
  stamp:
    sec: 1712073975
    nanosec: 74906341
  frame_id: world
pose:
  position:
    x: 0.06145360693335533
    y: -0.0772225484251976
    z: 0.018622836098074913
  orientation:
    x: -0.00013036215386819094
    y: -0.0010549906874075532
    z: 0.0009128611418418586
    w: -0.9999991059303284
---
header:
  stamp:
    sec: 1712073975
    nanosec: 84988469
  frame_id: world
pose:
  position:
    x: 0.06146154925227165
    y: -0.07722653448581696
    z: 0.01863073743879795
  orientation:
    x: -0.0001283814199268818
    y: -0.0010750896763056517
    z: 0.0009399811387993395
    w: -0.9999989867210388
---
header:
  stamp:
    sec: 1712073975
    nanosec: 94909314
  frame_id: world
pose:
  position:
    x: 0.061489664018154144
    y: -0.07715717703104019
    z: 0.018703140318393707
  orientation:
    x: -0.00014603306772187352
    y: -0.00031964201480150223
    z: 0.0007808062364347279
    w: -0.9999996423721313
---
header:
  stamp:
    sec: 1712073975
    nanosec: 105046866
  frame_id: world
pose:
  position:
    x: 0.06146473437547684
    y: -0.07722413539886475
    z: 0.018628805875778198
  orientation:
    x: -0.00014621276932302862
    y: -0.0010491765569895506
    z: 0.0009616996394470334
    w: -0.9999989867210388
---
header:
  stamp:
    sec: 1712073975
    nanosec: 105199541
  frame_id: world
pose:
  position:
    x: 0.06145875155925751
    y: -0.07722977548837662
    z: 0.018622513860464096
  orientation:
    x: -0.0001285825710510835
    y: -0.0010486490791663527
    z: 0.0009392508654855192
    w: -0.9999990463256836
---
header:
  stamp:
    sec: 1712073975
    nanosec: 115055169
  frame_id: world
pose:
  position:
    x: 0.06146172434091568
    y: -0.0772232711315155
    z: 0.018618233501911163
  orientation:
    x: -0.00013346651394385844
    y: -0.0010819921735674143
    z: 0.0009421866270713508
    w: -0.9999990463256836
---
header:
  stamp:
    sec: 1712073975
    nanosec: 124909324
  frame_id: world
pose:
  position:
    x: 0.06148727238178253
    y: -0.07716275006532669
    z: 0.01870308816432953
  orientation:
    x: -0.00013737448898609728
    y: -0.0002996546099893749
    z: 0.0007628801395185292
    w: -0.9999996423721313
---
header:
  stamp:
    sec: 1712073975
    nanosec: 134902234
  frame_id: world
pose:
  position:
    x: 0.061463143676519394
    y: -0.0772210881114006
    z: 0.0186192374676466
  orientation:
    x: -0.00013681135897058994
    y: -0.0010909970151260495
    z: 0.0009271585731767118
    w: -0.9999990463256836
---
header:
  stamp:
    sec: 1712073975
    nanosec: 144913321
  frame_id: world
pose:
  position:
    x: 0.06145584583282471
    y: -0.07722216099500656
    z: 0.01862177439033985
  orientation:
    x: -0.00014433884643949568
    y: -0.0010842009214684367
    z: 0.000939057266805321
    w: -0.9999989867210388
---
header:
  stamp:
    sec: 1712073975
    nanosec: 154905975
  frame_id: world
pose:
  position:
    x: 0.06149516999721527
    y: -0.07716130465269089
    z: 0.01870027743279934
  orientation:
    x: -0.00013744794705417007
    y: -0.0003015570982825011
    z: 0.0007714930106885731
    w: -0.9999997019767761
---
header:
  stamp:
    sec: 1712073975
    nanosec: 155014265
  frame_id: world
pose:
  position:
    x: 0.0614556148648262
    y: -0.07722692936658859
    z: 0.01862349547445774
  orientation:
    x: -0.0001019210321828723
    y: -0.0010298575507476926
    z: 0.0009338196250610054
    w: -0.9999991059303284
---
header:
  stamp:
    sec: 1712073975
    nanosec: 164917125
  frame_id: world
pose:
  position:
    x: 0.06146157532930374
    y: -0.07722728699445724
    z: 0.01861741580069065
  orientation:
    x: -0.00013732323714066297
    y: -0.0010494192829355597
    z: 0.0009156325249932706
    w: -0.9999990463256836
---
header:
  stamp:
    sec: 1712073975
    nanosec: 174907699
  frame_id: world
pose:
  position:
    x: 0.06146275997161865
    y: -0.07722660154104233
    z: 0.018620291724801064
  orientation:
    x: -0.00017929043679032475
    y: -0.0011601498117670417
    z: 0.0009402866126038134
    w: -0.999998927116394
---
header:
  stamp:
    sec: 1712073975
    nanosec: 184909025
  frame_id: world
pose:
  position:
    x: 0.06146372854709625
    y: -0.07722920924425125
    z: 0.018620995804667473
  orientation:
    x: -0.00015560122847091407
    y: -0.001102947979234159
    z: 0.0009558062301948667
    w: -0.999998927116394
---
header:
  stamp:
    sec: 1712073975
    nanosec: 194908559
  frame_id: world
pose:
  position:
    x: 0.061459705233573914
    y: -0.07722590863704681
    z: 0.01862161047756672
  orientation:
    x: -0.0001419940235791728
    y: -0.0011278013698756695
    z: 0.0009340877295471728
    w: -0.999998927116394
---
header:
  stamp:
    sec: 1712073975
    nanosec: 204905629
  frame_id: world
pose:
  position:
    x: 0.06146034598350525
    y: -0.07722683995962143
    z: 0.018616775050759315
  orientation:
    x: -0.00014384665701072663
    y: -0.001099033746868372
    z: 0.0009308318258263171
    w: -0.9999989867210388
---
header:
  stamp:
    sec: 1712073975
    nanosec: 205009055
  frame_id: world
pose:
  position:
    x: 0.0614786297082901
    y: -0.07716494798660278
    z: 0.018705099821090698
  orientation:
    x: -0.00013616085925605148
    y: -0.00025120467762462795
    z: 0.0007689672638662159
    w: -0.9999997019767761
---
header:
  stamp:
    sec: 1712073975
    nanosec: 214920716
  frame_id: world
pose:
  position:
    x: 0.06145548075437546
    y: -0.07723275572061539
    z: 0.018628502264618874
  orientation:
    x: -9.830585622694343e-05
    y: -0.0010377070866525173
    z: 0.0009334023925475776
    w: -0.9999991059303284
---
header:
  stamp:
    sec: 1712073975
    nanosec: 224909434
  frame_id: world
pose:
  position:
    x: 0.06145571917295456
    y: -0.077228844165802
    z: 0.01862524263560772
  orientation:
    x: -0.00010960517829516903
    y: -0.001094028353691101
    z: 0.0009636740433052182
    w: -0.999998927116394
---
header:
  stamp:
    sec: 1712073975
    nanosec: 234910696
  frame_id: world
pose:
  position:
    x: 0.061459727585315704
    y: -0.07722971588373184
    z: 0.018624987453222275
  orientation:
    x: -0.00013236922677606344
    y: -0.0010416307486593723
    z: 0.0009431699872948229
    w: -0.9999989867210388
---
header:
  stamp:
    sec: 1712073975
    nanosec: 244912630
  frame_id: world
pose:
  position:
    x: 0.06145353615283966
    y: -0.07722089439630508
    z: 0.01862560398876667
  orientation:
    x: -0.00014988021575845778
    y: -0.0011433301260694861
    z: 0.0009260634542442858
    w: -0.999998927116394
---
header:
  stamp:
    sec: 1712073975
    nanosec: 245025816
  frame_id: world
pose:
  position:
    x: 0.06146053597331047
    y: -0.07723108679056168
    z: 0.01862124353647232
  orientation:
    x: -0.00011746772361220792
    y: -0.0010780761949717999
    z: 0.0009216153412126005
    w: -0.9999990463256836
---
header:
  stamp:
    sec: 1712073975
    nanosec: 254911876
  frame_id: world
pose:
  position:
    x: 0.06145644187927246
    y: -0.07722789794206619
    z: 0.01862761192023754
  orientation:
    x: -0.00010313632810721174
    y: -0.0010485168313607574
    z: 0.0009259813814423978
    w: -0.9999990463256836
---
header:
  stamp:
    sec: 1712073975
    nanosec: 264910130
  frame_id: world
pose:
  position:
    x: 0.06145289167761803
    y: -0.07722873240709305
    z: 0.018618104979395866
  orientation:
    x: -0.0001622235868126154
    y: -0.0011361583601683378
    z: 0.0009345198632217944
    w: -0.999998927116394
---
header:
  stamp:
    sec: 1712073975
    nanosec: 274911073
  frame_id: world
pose:
  position:
    x: 0.061454109847545624
    y: -0.07722733169794083
    z: 0.018619777634739876
  orientation:
    x: -0.0001497481862315908
    y: -0.0011113816872239113
    z: 0.0009388933540321887
    w: -0.999998927116394
---
header:
  stamp:
    sec: 1712073975
    nanosec: 284911599
  frame_id: world
pose:
  position:
    x: 0.06145770847797394
    y: -0.07722781598567963
    z: 0.01862332783639431
  orientation:
    x: -0.0001491894799983129
    y: -0.0011399436043575406
    z: 0.0009390276973135769
    w: -0.9999989867210388
---
header:
  stamp:
    sec: 1712073975
    nanosec: 294912925
  frame_id: world
pose:
  position:
    x: 0.061458855867385864
    y: -0.07722406834363937
    z: 0.01861996203660965
  orientation:
    x: -0.0001326180063188076
    y: -0.0011260382598266006
    z: 0.0009255493641830981
    w: -0.999998927116394
---
header:
  stamp:
    sec: 1712073975
    nanosec: 304908651
  frame_id: world
pose:
  position:
    x: 0.06146027147769928
    y: -0.0772278681397438
    z: 0.01862095110118389
  orientation:
    x: -0.00012977694859728217
    y: -0.0010920639615505934
    z: 0.000939347839448601
    w: -0.9999989867210388
---
header:
  stamp:
    sec: 1712073975
    nanosec: 305009357
  frame_id: world
pose:
  position:
    x: 0.06145727261900902
    y: -0.07722494751214981
    z: 0.01862301491200924
  orientation:
    x: -0.0001468025875510648
    y: -0.0010761457961052656
    z: 0.0009353021741844714
    w: -0.9999989867210388
---
header:
  stamp:
    sec: 1712073975
    nanosec: 314922713
  frame_id: world
pose:
  position:
    x: 0.06145712733268738
    y: -0.07722672075033188
    z: 0.018618738278746605
  orientation:
    x: -0.00012527273793239146
    y: -0.0010613113408908248
    z: 0.0009512240067124367
    w: -0.9999990463256836
---
header:
  stamp:
    sec: 1712073975
    nanosec: 324912839
  frame_id: world
pose:
  position:
    x: 0.06146310269832611
    y: -0.07722440361976624
    z: 0.018618809059262276
  orientation:
    x: -0.00011619446013355628
    y: -0.0010721214348450303
    z: 0.0009233587770722806
    w: -0.9999990463256836
---
header:
  stamp:
    sec: 1712073975
    nanosec: 334914806
  frame_id: world
pose:
  position:
    x: 0.061457954347133636
    y: -0.07722548395395279
    z: 0.01862180233001709
  orientation:
    x: -0.00012412195792421699
    y: -0.0010584300616756082
    z: 0.0009102904587052763
    w: -0.9999990463256836
---
header:
  stamp:
    sec: 1712073975
    nanosec: 344916260
  frame_id: world
pose:
  position:
    x: 0.06145447492599487
    y: -0.07722361385822296
    z: 0.018619105219841003
  orientation:
    x: -0.00016817885625641793
    y: -0.001107861753553152
    z: 0.0009489665389992297
    w: -0.9999989867210388
---
header:
  stamp:
    sec: 1712073975
    nanosec: 354909458
  frame_id: world
pose:
  position:
    x: 0.061459731310606
    y: -0.07722174376249313
    z: 0.018621360883116722
  orientation:
    x: -0.00016215714276768267
    y: -0.0011110535124316812
    z: 0.000917241966817528
    w: -0.9999989867210388
---
header:
  stamp:
    sec: 1712073975
    nanosec: 355010036
  frame_id: world
pose:
  position:
    x: 0.061456531286239624
    y: -0.07723215222358704
    z: 0.018620474264025688
  orientation:
    x: -0.0001646963064558804
    y: -0.001101897330954671
    z: 0.000940331316087395
    w: -0.999998927116394
---
header:
  stamp:
    sec: 1712073975
    nanosec: 364920640
  frame_id: world
pose:
  position:
    x: 0.06146284565329552
    y: -0.07722736895084381
    z: 0.01862383633852005
  orientation:
    x: -0.00012893049279227853
    y: -0.001095286337658763
    z: 0.0009370383922941983
    w: -0.9999989867210388
---
header:
  stamp:
    sec: 1712073975
    nanosec: 374910190
  frame_id: world
pose:
